[{
  "_id": {
    "$oid": "632e62c9f74f70339cb68d89"
  },
  "location": {
    "address": "some address",
    "coordinates": [
      34.2,
      232.09
    ]
  },
  "title": "Bouncer Boy",
  "image": "https://imagelink.png",
  "description": "Night shift need to come at 8 am moring ",
  "phone": "91 7768869898",
  "city": "delhi",
  "catagory": "JOBS",
  "userId": "632dadd7df82a8e9c3c6ecfc",
  "isActive": true,
  "timestamp": {
    "$numberLong": "1663984329978"
  },
  "updatedAt": {
    "$numberLong": "1664030187077"
  }
},{
  "_id": {
    "$oid": "632ef0af733d09b50773f635"
  },
  "location": {
    "address": "czxcz",
    "coordinates": [
      0,
      0
    ]
  },
  "title": "ccds",
  "image": "https://findtoeasy.s3.ap-south-1.amazonaws.com/classified/istockphoto-466732980-1024x1024.jpg",
  "description": "xzcz",
  "phone": "zxcz",
  "city": "zxczcz",
  "catagory": "PERSONALS",
  "userId": "632dadd7df82a8e9c3c6ecfc",
  "isActive": true,
  "timestamp": {
    "$numberLong": "1664020655926"
  }
},{
  "_id": {
    "$oid": "632f5fb7832a89b566b7c53e"
  },
  "location": {
    "address": "12/43 Gaur city greter noida",
    "coordinates": [
      0,
      0
    ]
  },
  "title": "Dog Trainer",
  "image": "https://findtoeasy.s3.ap-south-1.amazonaws.com/classified/istockphoto-1324904634-170667a.jpg",
  "description": "Tain dog in day time usually  between 11 am to 6 pm",
  "phone": "9898326753",
  "city": "Noida",
  "catagory": "JOBS",
  "userId": "632f5f0f832a89b566b7c53d",
  "isActive": true,
  "timestamp": {
    "$numberLong": "1664049079651"
  },
  "updatedAt": {
    "$numberLong": "1664049138980"
  }
},{
  "_id": {
    "$oid": "632f6078832a89b566b7c53f"
  },
  "location": {
    "address": "5/17 Mukherji nagar",
    "coordinates": [
      0,
      0
    ]
  },
  "title": "Home Maker",
  "image": "https://findtoeasy.s3.ap-south-1.amazonaws.com/classified/olive-oil-968657_1280.webp",
  "description": "Cooking cleaning caring of kids from 8 am to 11 am",
  "phone": "8786656878",
  "city": "Delhi",
  "catagory": "JOBS",
  "userId": "632f5f0f832a89b566b7c53d",
  "isActive": true,
  "timestamp": {
    "$numberLong": "1664049272202"
  }
},{
  "_id": {
    "$oid": "632f634c832a89b566b7c540"
  },
  "location": {
    "address": "xXZZX jhidalj jhkjda",
    "coordinates": [
      0,
      0
    ]
  },
  "title": "Happy ending massage for 2000 1hr",
  "image": "https://findtoeasy.s3.ap-south-1.amazonaws.com/classified/business-woman-2071342__480.jpg",
  "description": "happikjskja lkjkldsa",
  "phone": "7878436672",
  "city": "Delhi",
  "catagory": "PERSONALS",
  "userId": "632f5f0f832a89b566b7c53d",
  "isActive": true,
  "timestamp": {
    "$numberLong": "1664049996280"
  }
},{
  "_id": {
    "$oid": "632f6442832a89b566b7c542"
  },
  "location": {
    "address": "lljlkas lkjsldk lakjsd",
    "coordinates": [
      0,
      0
    ]
  },
  "title": "Iphone for Sale 36000",
  "image": "https://findtoeasy.s3.ap-south-1.amazonaws.com/classified/bike-909690__480.jpg",
  "description": "New condition Iphone 12 for sale with charger",
  "phone": "9812748392",
  "city": "Mumbai",
  "catagory": "FOR_SALE",
  "userId": "632f63ec832a89b566b7c541",
  "isActive": true,
  "timestamp": {
    "$numberLong": "1664050242502"
  }
},{
  "_id": {
    "$oid": "632f65b4832a89b566b7c543"
  },
  "location": {
    "address": "sdfdsf",
    "coordinates": [
      0,
      0
    ]
  },
  "title": "sdfs",
  "image": "https://findtoeasy.s3.ap-south-1.amazonaws.com/classified/drinks-1283608__480.jpg",
  "description": "sdfs",
  "phone": "sdfdsf",
  "city": "fsdfds",
  "catagory": "EVENTS",
  "userId": "632f5f0f832a89b566b7c53d",
  "isActive": true,
  "timestamp": {
    "$numberLong": "1664050612650"
  }
}]